{
"type": "FeatureCollection",
"name": "mo_meat_packers",
"crs": { "type": "name", "properties": { "name": "urn:ogc:def:crs:OGC:1.3:CRS84" } },
"features": [
{ "type": "Feature", "properties": { "Name": "American Halal Meats", "Address": "2509 N. Broadway St. Louis, MO 63102", "County": "St. Louis", "Phone": "(314) 809-6868" }, "geometry": { "type": "Point", "coordinates": [ -90.19025, 38.65126 ] } },
{ "type": "Feature", "properties": { "Name": "Brown's Smokehouse Meats", "Address": "48 Buckeye Lane Elsberry, MO 63343", "County": "Lincoln", "Phone": "(573) 384-5284" }, "geometry": { "type": "Point", "coordinates": [ -90.96148, 39.11443 ] } },
{ "type": "Feature", "properties": { "Name": "Center Locker Service", "Address": "108 S. Public PO Box 290 Center, MO 63436", "County": "Ralls", "Phone": "(573) 267-3343" }, "geometry": { "type": "Point", "coordinates": [ -91.5293127, 39.508866 ] } },
{ "type": "Feature", "properties": { "Name": "Cloud’s Meats, Inc.", "Address": "2013 South Paradise Lane Carthage, MO 64836", "County": "Jasper", "Phone": "(417) 358-5855" }, "geometry": { "type": "Point", "coordinates": [ -94.34569, 37.15325 ] } },
{ "type": "Feature", "properties": { "Name": "Crane’s Meat Processing", "Address": "11657 E Englewood Rd Ashland, MO 65010", "County": "Boone", "Phone": "(573) 657-2501" }, "geometry": { "type": "Point", "coordinates": [ -92.16116, 38.81768 ] } },
{ "type": "Feature", "properties": { "Name": "Crispy Edge", "Address": "4168 Juniata St. St. Louis, MO 63116", "County": "St. Louis", "Phone": "(314) 310-3343" }, "geometry": { "type": "Point", "coordinates": [ -90.25803, 38.60194 ] } },
{ "type": "Feature", "properties": { "Name": "Dittmer Meat Packing Company", "Address": "9145 Ridge Rd. Dittmer, MO 63023", "County": "Jefferson", "Phone": "(636) 285-9090" }, "geometry": { "type": "Point", "coordinates": [ -90.68592, 38.31102 ] } },
{ "type": "Feature", "properties": { "Name": "Four Quarters Processing", "Address": "P O Box 375 204 W Main Hwy 154 Perry, MO 63462", "County": "Ralls", "Phone": "(573) 565-2622" }, "geometry": { "type": "Point", "coordinates": [ -91.67536, 39.43106 ] } },
{ "type": "Feature", "properties": { "Name": "Golden City Meats", "Address": "400 Vine St. Golden City, MO 64748", "County": "Barton", "Phone": "(417) 537-8560" }, "geometry": { "type": "Point", "coordinates": [ -94.09599, 37.39854 ] } },
{ "type": "Feature", "properties": { "Name": "Hatfield's Smoked Meats", "Address": "7329 Gateway Dr Neosho, MO 64850", "County": "Newton", "Phone": "(417) 624-3765" }, "geometry": { "type": "Point", "coordinates": [ -94.42302, 36.96513 ] } },
{ "type": "Feature", "properties": { "Name": "Hermann Wurst Haus", "Address": "234 E 1st Street Hermann, MO 65041", "County": "Gasconade", "Phone": "(573) 486-2266" }, "geometry": { "type": "Point", "coordinates": [ -91.43435, 38.70669 ] } },
{ "type": "Feature", "properties": { "Name": "Hetherington Meat Processing", "Address": "803 N Hwy N Clinton, MO 64735", "County": "Henry", "Phone": "(660) 885-4409" }, "geometry": { "type": "Point", "coordinates": [ -93.81785, 38.47589 ] } },
{ "type": "Feature", "properties": { "Name": "Holloway Distributing", "Address": "210 E Owen Puxico, MO 63960", "County": "Stoddard", "Phone": "(573) 222-6255" }, "geometry": { "type": "Point", "coordinates": [ -90.15921, 36.94889 ] } },
{ "type": "Feature", "properties": { "Name": "Hook’s Butchery and Meat Market", "Address": "725 S Eagle Norwood, MO 65717", "County": "Wright", "Phone": "(417) 746-1969" }, "geometry": { "type": "Point", "coordinates": [ -92.4183208, 37.0977717 ] } },
{ "type": "Feature", "properties": { "Name": "J & H Backes Poultry, LLC", "Address": "229 County Rd 402 Loose Creek, Mo 65054", "County": "Osage", "Phone": "(573) 897-2353" }, "geometry": { "type": "Point", "coordinates": [ -91.95231, 38.51051 ] } },
{ "type": "Feature", "properties": { "Name": "Josephville Meat Processing", "Address": "1363 Josephville Rd. Wentzville, MO 63385", "County": "St. Charles", "Phone": "(636) 327-5455" }, "geometry": { "type": "Point", "coordinates": [ -90.79599, 38.84121 ] } },
{ "type": "Feature", "properties": { "Name": "Kempf's Custom Butchering", "Address": "21612 Glenn Rd Sedalia, MO 65301", "County": "Pettis", "Phone": "(660) 826-2898" }, "geometry": { "type": "Point", "coordinates": [ -93.11, 38.76264 ] } },
{ "type": "Feature", "properties": { "Name": "Lyon Country Meats, LLC", "Address": "4636 Hwy 185 New Haven, MO 63068", "County": "Franklin", "Phone": "(573) 459-6328" }, "geometry": { "type": "Point", "coordinates": [ -91.17366, 38.5122 ] } },
{ "type": "Feature", "properties": { "Name": "Mary's Valley Meat Processing", "Address": "20 Brown Cemetary Rd. Steelville, MO 65565", "County": "Crawford", "Phone": "(573) 786-6328" }, "geometry": { "type": "Point", "coordinates": [ -91.24396, 37.96656 ] } },
{ "type": "Feature", "properties": { "Name": "Reis Meat Processing", "Address": "2470 Hwy C Jackson, MO 63755", "County": "Cape Girardeau", "Phone": "(573) 833-6281" }, "geometry": { "type": "Point", "coordinates": [ -89.639448, 37.3673607 ] } },
{ "type": "Feature", "properties": { "Name": "Shady Maples Farm", "Address": "17267 Hwy HH Versailles, MO 65084", "County": "Morgan", "Phone": "(573) 378-4387" }, "geometry": { "type": "Point", "coordinates": [ -92.74752, 38.51102 ] } },
{ "type": "Feature", "properties": { "Name": "Shiner’s", "Address": "3100 South Elliot Aurora, MO 65605", "County": "Lawrence", "Phone": "(417) 678-0094" }, "geometry": { "type": "Point", "coordinates": [ -93.71823, 36.9438 ] } },
{ "type": "Feature", "properties": { "Name": "Swiss Meat & Sausage Co.", "Address": "2056 Hwy 19 South Hermann, MO 65041", "County": "Gasconade", "Phone": "(573) 486-2086" }, "geometry": { "type": "Point", "coordinates": [ -91.47127, 38.56124 ] } },
{ "type": "Feature", "properties": { "Name": "The Butcher Shop, LLC", "Address": "Box 177 Vienna, MO 65582", "County": "Maries", "Phone": "(573) 744-5888" }, "geometry": { "type": "Point", "coordinates": [ -91.94691, 38.18538 ] } },
{ "type": "Feature", "properties": { "Name": "The Deep Freeze", "Address": "1010 South Westwood Blvd Poplar Bluff, MO 63901", "County": "Butler", "Phone": "(573) 785-2327" }, "geometry": { "type": "Point", "coordinates": [ -90.41076, 36.74709 ] } },
{ "type": "Feature", "properties": { "Name": "The Meat Shop at Rock Ridge Farms", "Address": "10415 State Hwy 25 Dexter MO 63841", "County": "Stoddard", "Phone": "(573) 891-2020" }, "geometry": { "type": "Point", "coordinates": [ -89.96442, 36.76734 ] } },
{ "type": "Feature", "properties": { "Name": "Tom’s Slaughtering and Meat Processing", "Address": "2179 State Road A Montreal, MO 65591", "County": "Camden", "Phone": "(573) 346-5233" }, "geometry": { "type": "Point", "coordinates": [ -92.66651, 38.04452 ] } },
{ "type": "Feature", "properties": { "Name": "Troyer's Meat Processing", "Address": "10329 Lawrence 1050 Stotts City, MO 65756", "County": "Lawrence", "Phone": "(417) 285-4565" }, "geometry": { "type": "Point", "coordinates": [ -93.97171, 37.12872 ] } },
{ "type": "Feature", "properties": { "Name": "White Barn Processing", "Address": "36086 Monroe Rd 370 Monroe City, MO 63456", "County": "Monroe", "Phone": "(573) 735-1289" }, "geometry": { "type": "Point", "coordinates": [ -91.80717, 39.61468 ] } },
{ "type": "Feature", "properties": { "Name": "Zimmerman Meat Processing", "Address": "4534 Hwy 17 Summersville, MO 65571", "County": "Texas", "Phone": "(417) 932-5557" }, "geometry": { "type": "Point", "coordinates": [ -91.7151657, 37.1969137 ] } }
]
}
